{
"type": "FeatureCollection",
"name": "monitoring_points",
"crs": { "type": "name", "properties": { "name": "urn:ogc:def:crs:OGC:1.3:CRS84" } },
"features": [
{ "type": "Feature", "properties": { "id": 1, "name": "图书馆", "type": "library", "lat": 30.5802, "lng": 103.9935, "base_noise_db": 40, "base_crowd": 5 }, "geometry": { "type": "Point", "coordinates": [ 103.9935, 30.5802 ] } },
{ "type": "Feature", "properties": { "id": 2, "name": "第一教学楼", "type": "classroom", "lat": 30.5815, "lng": 103.992, "base_noise_db": 55, "base_crowd": 7 }, "geometry": { "type": "Point", "coordinates": [ 103.992, 30.5815 ] } },
{ "type": "Feature", "properties": { "id": 3, "name": "第二教学楼", "type": "classroom", "lat": 30.5808, "lng": 103.9955, "base_noise_db": 55, "base_crowd": 7 }, "geometry": { "type": "Point", "coordinates": [ 103.9955, 30.5808 ] } },
{ "type": "Feature", "properties": { "id": 4, "name": "一食堂", "type": "canteen", "lat": 30.5785, "lng": 103.9925, "base_noise_db": 65, "base_crowd": 8 }, "geometry": { "type": "Point", "coordinates": [ 103.9925, 30.5785 ] } },
{ "type": "Feature", "properties": { "id": 5, "name": "二食堂", "type": "canteen", "lat": 30.579, "lng": 103.996, "base_noise_db": 65, "base_crowd": 8 }, "geometry": { "type": "Point", "coordinates": [ 103.996, 30.579 ] } },
{ "type": "Feature", "properties": { "id": 6, "name": "学生宿舍A区", "type": "dorm", "lat": 30.577, "lng": 103.994, "base_noise_db": 45, "base_crowd": 6 }, "geometry": { "type": "Point", "coordinates": [ 103.994, 30.577 ] } },
{ "type": "Feature", "properties": { "id": 7, "name": "学生宿舍B区", "type": "dorm", "lat": 30.5765, "lng": 103.997, "base_noise_db": 45, "base_crowd": 6 }, "geometry": { "type": "Point", "coordinates": [ 103.997, 30.5765 ] } },
{ "type": "Feature", "properties": { "id": 8, "name": "体育场", "type": "sports", "lat": 30.5825, "lng": 103.9975, "base_noise_db": 50, "base_crowd": 5 }, "geometry": { "type": "Point", "coordinates": [ 103.9975, 30.5825 ] } },
{ "type": "Feature", "properties": { "id": 9, "name": "行政楼", "type": "admin", "lat": 30.583, "lng": 103.9935, "base_noise_db": 35, "base_crowd": 3 }, "geometry": { "type": "Point", "coordinates": [ 103.9935, 30.583 ] } },
{ "type": "Feature", "properties": { "id": 10, "name": "校门口(主干道)", "type": "gate", "lat": 30.5755, "lng": 103.9945, "base_noise_db": 55, "base_crowd": 6 }, "geometry": { "type": "Point", "coordinates": [ 103.9945, 30.5755 ] } }
]
}
