id,name,type,lat,lng,base_noise_db,base_crowd
1,图书馆,library,30.5802,103.9935,40,5
2,第一教学楼,classroom,30.5815,103.9920,55,7
3,第二教学楼,classroom,30.5808,103.9955,55,7
4,一食堂,canteen,30.5785,103.9925,65,8
5,二食堂,canteen,30.5790,103.9960,65,8
6,学生宿舍A区,dorm,30.5770,103.9940,45,6
7,学生宿舍B区,dorm,30.5765,103.9970,45,6
8,体育场,sports,30.5825,103.9975,50,5
9,行政楼,admin,30.5830,103.9935,35,3
10,校门口(主干道),gate,30.5755,103.9945,55,6
